{"results": [{"fsq_id": "4cd91b22a99d3704dc0609ce", "categories": [{"id": 10051, "name": "Stadium", "icon": {"prefix": "https://ss3.4sqi.net/img/categories_v2/arts_entertainment/stadium_", "suffix": ".png"}}], "chains": [], "distance": 1566, "geocodes": {"main": {"latitude": 1.338437, "longitude": 103.694052}}, "link": "/v3/places/4cd91b22a99d3704dc0609ce", "location": {"country": "SG", "cross_street": "", "formatted_address": "648965", "locality": "Singapore", "post_town": "Jurong", "postcode": "648965"}, "name": "Sports Hall", "related_places": {"parent": {"fsq_id": "4bd357239854d13aca8dfd4d", "name": "Jurong West Sports and Recreation Centre"}}, "timezone": "Asia/Singapore"}, {"fsq_id": "4f8785efe4b002b9098221f5", "categories": [{"id": 12038, "name": "College Stadium", "icon": {"prefix": "https://ss3.4sqi.net/img/categories_v2/arts_entertainment/stadium_", "suffix": ".png"}}], "chains": [], "distance": 3163, "geocodes": {"main": {"latitude": 1.343995, "longitude": 103.708333}, "roof": {"latitude": 1.343995, "longitude": 103.708333}}, "link": "/v3/places/4f8785efe4b002b9098221f5", "location": {"country": "SG", "cross_street": "", "formatted_address": "649960", "locality": "Singapore", "post_town": "Jurong", "postcode": "649960"}, "name": "Rv Sports Hall", "related_places": {}, "timezone": "Asia/Singapore"}, {"fsq_id": "4c443c89fb6eb7133b674e4a", "categories": [{"id": 12038, "name": "College Stadium", "icon": {"prefix": "https://ss3.4sqi.net/img/categories_v2/arts_entertainment/stadium_", "suffix": ".png"}}], "chains": [], "distance": 16537, "geocodes": {"main": {"latitude": 1.445377, "longitude": 103.785236}, "roof": {"latitude": 1.445377, "longitude": 103.785236}}, "link": "/v3/places/4c443c89fb6eb7133b674e4a", "location": {"country": "SG", "cross_street": "9 Woodlands Ave 9", "formatted_address": "9 Woodlands Ave 9, 738984", "locality": "Singapore", "post_town": "Far North", "postcode": "738984"}, "name": "Sports Hall", "related_places": {"parent": {"fsq_id": "4b09eb49f964a520c31f23e3", "name": "Republic Polytechnic"}}, "timezone": "Asia/Singapore"}, {"fsq_id": "4cd10260de0f6dcb277b6e63", "categories": [{"id": 12014, "name": "College Academic Building", "icon": {"prefix": "https://ss3.4sqi.net/img/categories_v2/education/academicbuilding_", "suffix": ".png"}}], "chains": [], "distance": 11350, "geocodes": {"main": {"latitude": 1.309175, "longitude": 103.77722}, "roof": {"latitude": 1.309175, "longitude": 103.77722}}, "link": "/v3/places/4cd10260de0f6dcb277b6e63", "location": {"address": "1002 Dover Rd", "country": "SG", "cross_street": "", "formatted_address": "1002 Dover Rd, 139653", "locality": "Singapore", "post_town": "South West", "postcode": "139653"}, "name": "Singapore Poly Sports Hall", "related_places": {"parent": {"fsq_id": "c9afc370df7a4737160dd06c", "name": "Singapore Polytechnic"}}, "timezone": "Asia/Singapore"}, {"fsq_id": "544e1e02498e22c6b8e01025", "categories": [{"id": 12014, "name": "College Academic Building", "icon": {"prefix": "https://ss3.4sqi.net/img/categories_v2/education/academicbuilding_", "suffix": ".png"}}], "chains": [], "distance": 10758, "geocodes": {"main": {"latitude": 1.328459, "longitude": 103.776149}}, "link": "/v3/places/544e1e02498e22c6b8e01025", "location": {"address": "461 Clementi Rd", "country": "SG", "cross_street": "", "formatted_address": "461 Clementi Rd, 599494", "locality": "Singapore", "post_town": "Central West", "postcode": "599494"}, "name": "Sim Sports Hall", "related_places": {"parent": {"fsq_id": "4b186113f964a520cbd123e3", "name": "Simcommunicate, Singapore University of Social Sciences"}}, "timezone": "Asia/Singapore"}, {"fsq_id": "52be6a0211d2324731e5f811", "categories": [{"id": 18000, "name": "Sports and Recreation", "icon": {"prefix": "https://ss3.4sqi.net/img/categories_v2/shops/sports_outdoors_", "suffix": ".png"}}], "chains": [], "distance": 11472, "geocodes": {"main": {"latitude": 1.294504, "longitude": 103.772578}, "roof": {"latitude": 1.294504, "longitude": 103.772578}}, "link": "/v3/places/52be6a0211d2324731e5f811", "location": {"address": "9 Kent Ridge Dr", "country": "SG", "cross_street": "NUSS Alumni Complex", "formatted_address": "9 Kent Ridge Dr (NUSS Alumni Complex), 117416", "locality": "Singapore", "post_town": "South West", "postcode": "117416"}, "name": "Krgh Sports Hall", "related_places": {}, "timezone": "Asia/Singapore"}, {"fsq_id": "4b058818f964a520cbb122e3", "categories": [{"id": 18048, "name": "Recreation Center", "icon": {"prefix": "https://ss3.4sqi.net/img/categories_v2/shops/sports_outdoors_", "suffix": ".png"}}], "chains": [], "distance": 19107, "geocodes": {"main": {"latitude": 1.330317, "longitude": 103.851077}, "roof": {"latitude": 1.330317, "longitude": 103.851077}}, "link": "/v3/places/4b058818f964a520cbb122e3", "location": {"address": "297A Lorong 6 Toa Payoh", "country": "SG", "cross_street": "", "formatted_address": "297A Lorong 6 Toa Payoh, 319389", "locality": "Toa Payoh", "post_town": "Toa Payoh", "postcode": "319389"}, "name": "Toa Payoh Sports Hall", "related_places": {}, "timezone": "Asia/Singapore"}, {"fsq_id": "4f34d4e7e4b0aa70b2bc97d3", "categories": [{"id": 12034, "name": "College Rec Center", "icon": {"prefix": "https://ss3.4sqi.net/img/categories_v2/education/reccenter_", "suffix": ".png"}}], "chains": [], "distance": 19716, "geocodes": {"main": {"latitude": 1.296774, "longitude": 103.852152}}, "link": "/v3/places/4f34d4e7e4b0aa70b2bc97d3", "location": {"address": "81 Victoria St, Singapore", "country": "SG", "cross_street": "", "formatted_address": "81 Victoria St, Singapore, 188065", "locality": "Singapore", "post_town": "Beach Road", "postcode": "188065"}, "name": "Smu Sports Hall", "related_places": {}, "timezone": "Asia/Singapore"}, {"fsq_id": "4c208199920076b07b48c6e9", "categories": [{"id": 12027, "name": "College Gym", "icon": {"prefix": "https://ss3.4sqi.net/img/categories_v2/building/gym_", "suffix": ".png"}}, {"id": 12009, "name": "Education", "icon": {"prefix": "https://ss3.4sqi.net/img/categories_v2/building/school_", "suffix": ".png"}}], "chains": [], "distance": 19475, "geocodes": {"main": {"latitude": 1.383644, "longitude": 103.849662}, "roof": {"latitude": 1.383644, "longitude": 103.849662}}, "link": "/v3/places/4c208199920076b07b48c6e9", "location": {"country": "SG", "cross_street": "", "formatted_address": "569815", "locality": "Singapore", "post_town": "Ang Mo Kio", "postcode": "569815"}, "name": "Nanyang Polytechnic Sports Hall", "related_places": {"parent": {"fsq_id": "4b08e83ef964a5204c1323e3", "name": "Nanyang Polytechnic"}}, "timezone": "Asia/Singapore"}, {"fsq_id": "4b26e945f964a520ef8224e3", "categories": [{"id": 18021, "name": "Gym and Studio", "icon": {"prefix": "https://ss3.4sqi.net/img/categories_v2/building/gym_", "suffix": ".png"}}], "chains": [], "distance": 18593, "geocodes": {"main": {"latitude": 1.412021, "longitude": 103.831296}, "roof": {"latitude": 1.412021, "longitude": 103.831296}}, "link": "/v3/places/4b26e945f964a520ef8224e3", "location": {"address": "101 Yishun Avenue 1", "country": "SG", "cross_street": "", "formatted_address": "101 Yishun Avenue 1, 769130", "locality": "Singapore", "post_town": "Yishun", "postcode": "769130"}, "name": "Yishun Sports Hall", "related_places": {}, "timezone": "Asia/Singapore"}], "context": {"geo_bounds": {"circle": {"center": {"latitude": 1.34, "longitude": 103.68}, "radius": 50000}}}}