{"results": [{"fsq_id": "4c675240aebea593f70c76d0", "categories": [{"id": 12059, "name": "High School", "icon": {"prefix": "https://ss3.4sqi.net/img/categories_v2/building/school_", "suffix": ".png"}}], "chains": [], "distance": 2915, "geocodes": {"main": {"latitude": 1.335536, "longitude": 103.702152}, "roof": {"latitude": 1.335536, "longitude": 103.702152}}, "link": "/v3/places/4c675240aebea593f70c76d0", "location": {"address": "61 Jurong West St 65", "country": "SG", "formatted_address": "61 Jurong West St 65, 648348", "locality": "Singapore", "post_town": "Jurong", "postcode": "648348"}, "name": "Jurong West Secondary School", "related_places": {}, "timezone": "Asia/Singapore"}, {"fsq_id": "4de8cabde4cd157353fe2347", "categories": [{"id": 17100, "name": "Newsstand", "icon": {"prefix": "https://ss3.4sqi.net/img/categories_v2/shops/newsstand_", "suffix": ".png"}}], "chains": [], "distance": 3497, "geocodes": {"main": {"latitude": 1.341078, "longitude": 103.705508}, "roof": {"latitude": 1.341078, "longitude": 103.705508}}, "link": "/v3/places/4de8cabde4cd157353fe2347", "location": {"address": "688 Jurong West Central 1", "address_extended": "#01-237", "country": "SG", "cross_street": "", "formatted_address": "688 Jurong West Central 1, 640688", "locality": "Singapore", "post_town": "Jurong", "postcode": "640688"}, "name": "Whispering Hearts Infant and Child Care", "related_places": {}, "timezone": "Asia/Singapore"}, {"fsq_id": "4bf9dab55317a593f6fd017f", "categories": [{"id": 12059, "name": "High School", "icon": {"prefix": "https://ss3.4sqi.net/img/categories_v2/building/school_", "suffix": ".png"}}], "chains": [], "distance": 3528, "geocodes": {"main": {"latitude": 1.330303, "longitude": 103.724117}, "roof": {"latitude": 1.330303, "longitude": 103.724117}}, "link": "/v3/places/4bf9dab55317a593f6fd017f", "location": {"address": "31 Yuan Ching Rd", "country": "SG", "formatted_address": "31 Yuan Ching Rd, 618652", "locality": "Singapore", "post_town": "Jurong", "postcode": "618652"}, "name": "Jurong Secondary School", "related_places": {"children": [{"fsq_id": "4e0908e752b165b7d7b77729", "name": "Classroom 2D | Jurong Secondary School"}]}, "timezone": "Asia/Singapore"}, {"fsq_id": "4dbbafb10437955ec01ef9cc", "categories": [{"id": 12009, "name": "Education", "icon": {"prefix": "https://ss3.4sqi.net/img/categories_v2/building/school_", "suffix": ".png"}}], "chains": [], "distance": 3550, "geocodes": {"main": {"latitude": 1.341673, "longitude": 103.697028}, "roof": {"latitude": 1.341673, "longitude": 103.697028}}, "link": "/v3/places/4dbbafb10437955ec01ef9cc", "location": {"address": "638 Jurong West St 61", "address_extended": "#02-14", "country": "SG", "cross_street": "", "formatted_address": "638 Jurong West St 61, 640638", "locality": "Singapore", "post_town": "Jurong", "postcode": "640638"}, "name": "Novelty Learning Centre", "related_places": {}, "timezone": "Asia/Singapore"}, {"fsq_id": "4c999f22d4b1b1f7dd5bc935", "categories": [{"id": 12057, "name": "Primary and Secondary School", "icon": {"prefix": "https://ss3.4sqi.net/img/categories_v2/building/school_", "suffix": ".png"}}], "chains": [], "distance": 3573, "geocodes": {"main": {"latitude": 1.339741, "longitude": 103.687774}}, "link": "/v3/places/4c999f22d4b1b1f7dd5bc935", "location": {"address": "33 Jurong West St 91 Singapore", "country": "SG", "formatted_address": "33 Jurong West St 91 Singapore, 649037", "locality": "Singapore", "post_town": "Jurong", "postcode": "649037"}, "name": "Juying Secondary School", "related_places": {}, "timezone": "Asia/Singapore"}, {"fsq_id": "4b70d16cf964a520f92f2de3", "categories": [{"id": 12057, "name": "Primary and Secondary School", "icon": {"prefix": "https://ss3.4sqi.net/img/categories_v2/building/school_", "suffix": ".png"}}], "chains": [], "distance": 3747, "geocodes": {"main": {"latitude": 1.338424, "longitude": 103.717983}, "roof": {"latitude": 1.338424, "longitude": 103.717983}}, "link": "/v3/places/4b70d16cf964a520f92f2de3", "location": {"address": "161 Corporation Dr", "country": "SG", "formatted_address": "161 Corporation Dr, 618310", "locality": "Jurong West New Town", "post_town": "Jurong", "postcode": "618310"}, "name": "Lakeside Primary School", "related_places": {}, "timezone": "Asia/Singapore"}, {"fsq_id": "4c2fef757cc0c9b6ccadec9a", "categories": [{"id": 12058, "name": "Elementary School", "icon": {"prefix": "https://ss3.4sqi.net/img/categories_v2/building/school_", "suffix": ".png"}}], "chains": [], "distance": 3898, "geocodes": {"main": {"latitude": 1.344743, "longitude": 103.699039}, "roof": {"latitude": 1.344743, "longitude": 103.699039}}, "link": "/v3/places/4c2fef757cc0c9b6ccadec9a", "location": {"address": "1 Jurong West St 72", "country": "SG", "formatted_address": "1 Jurong West St 72, 649223", "locality": "Singapore", "post_town": "Jurong", "postcode": "649223"}, "name": "West Grove Primary School", "related_places": {}, "timezone": "Asia/Singapore"}, {"fsq_id": "4bfc98cee529c92894d0b98c", "categories": [{"id": 12059, "name": "High School", "icon": {"prefix": "https://ss3.4sqi.net/img/categories_v2/building/school_", "suffix": ".png"}}], "chains": [], "distance": 4203, "geocodes": {"main": {"latitude": 1.347666, "longitude": 103.694622}, "roof": {"latitude": 1.347666, "longitude": 103.694622}}, "link": "/v3/places/4bfc98cee529c92894d0b98c", "location": {"address": "21 Jurong West St 81", "country": "SG", "formatted_address": "21 Jurong West St 81, 649075", "locality": "Singapore", "post_town": "Jurong", "postcode": "649075"}, "name": "Pioneer Secondary School", "related_places": {}, "timezone": "Asia/Singapore"}, {"fsq_id": "4def3c3252b1d9bad3b9fa87", "categories": [{"id": 12059, "name": "High School", "icon": {"prefix": "https://ss3.4sqi.net/img/categories_v2/building/school_", "suffix": ".png"}}], "chains": [], "distance": 4554, "geocodes": {"main": {"latitude": 1.346397, "longitude": 103.681294}, "roof": {"latitude": 1.346397, "longitude": 103.681294}}, "link": "/v3/places/4def3c3252b1d9bad3b9fa87", "location": {"address": "50 Nanyang Ave, North Spine", "country": "SG", "cross_street": "Blk NS4-04-25", "formatted_address": "50 Nanyang Ave, North Spine (Blk NS4-04-25), 639798", "locality": "Singapore", "post_town": "Jurong", "postcode": "639798"}, "name": "Ntu High Performance Computing Center", "related_places": {}, "timezone": "Asia/Singapore"}, {"fsq_id": "4b317115f964a520050725e3", "categories": [{"id": 12059, "name": "High School", "icon": {"prefix": "https://ss3.4sqi.net/img/categories_v2/building/school_", "suffix": ".png"}}], "chains": [], "distance": 4783, "geocodes": {"main": {"latitude": 1.353682, "longitude": 103.701678}, "roof": {"latitude": 1.353682, "longitude": 103.701678}}, "link": "/v3/places/4b317115f964a520050725e3", "location": {"address": "11 Jurong West St 25", "country": "SG", "cross_street": "Off Jalan Bahar", "formatted_address": "11 Jurong West St 25 (Off Jalan Bahar), 648350", "locality": "Singapore", "post_town": "Jurong", "postcode": "648350"}, "name": "Westwood Secondary School", "related_places": {"children": []}, "timezone": "Asia/Singapore"}], "context": {"geo_bounds": {"circle": {"center": {"latitude": 1.31, "longitude": 103.7}, "radius": 5000}}}}