{"results": [{"fsq_id": "4c065e5a91d776b003b7f8f9", "categories": [{"id": 13035, "name": "Coffee Shop", "icon": {"prefix": "https://ss3.4sqi.net/img/categories_v2/food/coffeeshop_", "suffix": ".png"}}], "chains": [{"id": "ab4c54c0-d68a-012e-5619-003048cad9da", "name": "Starbucks"}], "distance": 3272, "geocodes": {"main": {"latitude": 1.338788, "longitude": 103.705568}, "roof": {"latitude": 1.338788, "longitude": 103.705568}}, "link": "/v3/places/4c065e5a91d776b003b7f8f9", "location": {"address_extended": "#03-52", "country": "SG", "cross_street": "63 Jurong West Ctrl 3", "formatted_address": "63 Jurong West Ctrl 3, 648337", "locality": "Singapore", "post_town": "Jurong", "postcode": "648337"}, "name": "Starbucks", "related_places": {"parent": {"fsq_id": "4b058817f964a5203eb122e3", "name": "Jurong Point"}}, "timezone": "Asia/Singapore"}, {"fsq_id": "4e8c3ecb0cd65621ed5ec8b7", "categories": [{"id": 13035, "name": "Coffee Shop", "icon": {"prefix": "https://ss3.4sqi.net/img/categories_v2/food/coffeeshop_", "suffix": ".png"}}], "chains": [{"id": "ab4c54c0-d68a-012e-5619-003048cad9da", "name": "Starbucks"}], "distance": 4639, "geocodes": {"main": {"latitude": 1.346973, "longitude": 103.680236}, "roof": {"latitude": 1.346973, "longitude": 103.680236}}, "link": "/v3/places/4e8c3ecb0cd65621ed5ec8b7", "location": {"address": "76 Nanyang Dr", "address_extended": "#01-06 NTU North Spine", "country": "SG", "cross_street": "76 Nanyang Drive", "formatted_address": "76 Nanyang Dr (76 Nanyang Drive), 637331", "locality": "Singapore", "post_town": "Jurong", "postcode": "637331"}, "name": "Starbucks", "related_places": {"parent": {"fsq_id": "4c7f595dfb13a1cd4a66a0a4", "name": "Ntu Student Activities Centre"}}, "timezone": "Asia/Singapore"}, {"fsq_id": "637f717fec2fc37de72cac7f", "categories": [{"id": 13035, "name": "Coffee Shop", "icon": {"prefix": "https://ss3.4sqi.net/img/categories_v2/food/coffeeshop_", "suffix": ".png"}}], "chains": [{"id": "ab4c54c0-d68a-012e-5619-003048cad9da", "name": "Starbucks"}], "distance": 4436, "geocodes": {"main": {"latitude": 1.343351, "longitude": 103.721959}}, "link": "/v3/places/637f717fec2fc37de72cac7f", "location": {"address": "106 Yuan Ching Rd", "country": "SG", "cross_street": "", "formatted_address": "106 Yuan Ching Rd, 619616", "locality": "Singapore", "post_town": "Jurong", "postcode": "619616"}, "name": "Starbucks", "related_places": {}, "timezone": "Asia/Singapore"}, {"fsq_id": "4def9f8f52b1d9bad3c37b70", "categories": [{"id": 13035, "name": "Coffee Shop", "icon": {"prefix": "https://ss3.4sqi.net/img/categories_v2/food/coffeeshop_", "suffix": ".png"}}], "chains": [{"id": "ab4c54c0-d68a-012e-5619-003048cad9da", "name": "Starbucks"}], "distance": 4599, "geocodes": {"main": {"latitude": 1.344764, "longitude": 103.72231}}, "link": "/v3/places/4def9f8f52b1d9bad3c37b70", "location": {"address": "201 Boon Lay Way", "country": "SG", "cross_street": "", "formatted_address": "201 Boon Lay Way, 649845", "locality": "Singapore", "post_town": "Jurong", "postcode": "649845"}, "name": "Starbucks", "related_places": {}, "timezone": "Asia/Singapore"}, {"fsq_id": "0c5bda5962aa46aa793fcdfb", "categories": [{"id": 13035, "name": "Coffee Shop", "icon": {"prefix": "https://ss3.4sqi.net/img/categories_v2/food/coffeeshop_", "suffix": ".png"}}], "chains": [{"id": "ab4c54c0-d68a-012e-5619-003048cad9da", "name": "Starbucks"}], "distance": 3323, "geocodes": {"main": {"latitude": 1.339115, "longitude": 103.706831}, "roof": {"latitude": 1.339115, "longitude": 103.706831}}, "link": "/v3/places/0c5bda5962aa46aa793fcdfb", "location": {"address": "1 Jurong West Central 2", "country": "SG", "formatted_address": "1 Jurong West Central 2", "locality": "Singapore", "post_town": "Jurong"}, "name": "Starbucks", "related_places": {}}, {"fsq_id": "4f855e6da56448632d7eca93", "categories": [{"id": 13035, "name": "Coffee Shop", "icon": {"prefix": "https://ss3.4sqi.net/img/categories_v2/food/coffeeshop_", "suffix": ".png"}}], "chains": [{"id": "ab4c54c0-d68a-012e-5619-003048cad9da", "name": "Starbucks"}], "distance": 3406, "geocodes": {"main": {"latitude": 1.339977, "longitude": 103.70641}, "roof": {"latitude": 1.339977, "longitude": 103.70641}}, "link": "/v3/places/4f855e6da56448632d7eca93", "location": {"address": "63 Jurong West Central 3", "address_extended": "#03-52/52A Jurong Point", "country": "SG", "formatted_address": "63 Jurong West Central 3, 648331", "locality": "Singapore", "post_town": "Jurong", "postcode": "648331"}, "name": "Starbucks", "related_places": {}}, {"fsq_id": "9f5d48fcc1d942bce843f5e4", "categories": [{"id": 13035, "name": "Coffee Shop", "icon": {"prefix": "https://ss3.4sqi.net/img/categories_v2/food/coffeeshop_", "suffix": ".png"}}], "chains": [{"id": "ab4c54c0-d68a-012e-5619-003048cad9da", "name": "Starbucks"}], "distance": 4883, "geocodes": {"main": {"latitude": 1.35151, "longitude": 103.685566}, "roof": {"latitude": 1.35151, "longitude": 103.685566}}, "link": "/v3/places/9f5d48fcc1d942bce843f5e4", "location": {"address": "NTU North Spine, Blk NS. 3 Nanyang Ave", "address_extended": "S3-01-07 North Spine 50", "country": "SG", "formatted_address": "NTU North Spine, Blk NS. 3 Nanyang Ave, 639798", "locality": "Singapore", "post_town": "Jurong", "postcode": "639798"}, "name": "Starbucks", "related_places": {}}], "context": {"geo_bounds": {"circle": {"center": {"latitude": 1.31, "longitude": 103.7}, "radius": 5000}}}}