{"results": [{"fsq_id": "4d9c2440074d54812ca23aec", "categories": [{"id": 19037, "name": "Airport Terminal", "icon": {"prefix": "https://ss3.4sqi.net/img/categories_v2/travel/airport_gate_", "suffix": ".png"}}], "chains": [], "distance": 4632, "geocodes": {"main": {"latitude": 1.347632, "longitude": 103.681843}, "roof": {"latitude": 1.347632, "longitude": 103.681843}}, "link": "/v3/places/4d9c2440074d54812ca23aec", "location": {"address": "N3.01 50 Nanyang Av", "address_extended": "#2-b4 -", "country": "SG", "cross_street": "School Of Mechanical And Aerospace Engineering, Na", "formatted_address": "N3.01 50 Nanyang Av (School Of Mechanical And Aerospace Engineering, Na), 639798", "locality": "Singapore", "post_town": "Jurong", "postcode": "639798"}, "name": "Aircraft Hangar", "related_places": {}, "timezone": "Asia/Singapore"}, {"fsq_id": "160067c457744557a4c971c6", "categories": [{"id": 19031, "name": "Airport", "icon": {"prefix": "https://ss3.4sqi.net/img/categories_v2/travel/airport_", "suffix": ".png"}}], "chains": [], "distance": 2381, "geocodes": {"main": {"latitude": 1.328159, "longitude": 103.711392}, "roof": {"latitude": 1.328159, "longitude": 103.711392}}, "link": "/v3/places/160067c457744557a4c971c6", "location": {"address": "8 Link Rd", "country": "SG", "formatted_address": "8 Link Rd, 619030", "locality": "Singapore", "post_town": "Jurong", "postcode": "619030"}, "name": "Airport", "related_places": {}}], "context": {"geo_bounds": {"circle": {"center": {"latitude": 1.31, "longitude": 103.7}, "radius": 5000}}}}